[
  {
    "id": 900,
    "title": "Imposición pañoleta a san Juan Bosco",
    "day": 9,
    "hour": "09:00",
    "place_text": "Colegio Salesianos de San Bernardo",
    "place_long": "-0.414302",
    "place_lat": "42.142356",
    "category": "otros",
    "description": "Imposición de la pañoleta de las Fiestas de San Lorenzo a san Juan Bosco.",
    "cancelled": false
  },
  {
    "id": 901,
    "title": "Izado de banderas",
    "day": 9,
    "hour": "10:15",
    "place_text": "Plaza de la Catedral",
    "place_long": "-0.4108276",
    "place_lat": "42.1407244",
    "category": "otros",
    "description": "Acto de izado de las banderas nacionales de Francia y España por parte de los Alcaldes de las ciudades de Tarbes y Huesca.",
    "cancelled": false
  },
  {
    "id": 902,
    "title": "Entrega Parrilla de Oro",
    "day": 9,
    "hour": "11:00",
    "place_text": "Salón del Justicia, Ayuntamiento",
    "place_long": "-0.4110918",
    "place_lat": "42.1405962",
    "category": "otros",
    "description": "Recepción de autoridades, discursos y entrega de la Parrilla de Oro “San Lorenzo 2016”.",
    "cancelled": false
  },
  {
    "id": 903,
    "title": "Agrupación Folclórica el Moral (Tenerife)",
    "day": 9,
    "hour": "11:30",
    "place_text": "Residencia de Mayores “Sagrada Familia”",
    "place_long": "-0.4035614",
    "place_lat": "42.1423496",
    "category": "conciertos",
    "description": "Sin descripción.",
    "cancelled": false
  },
  {
    "id": 904,
    "title": "Retransmisión cohete anunciador",
    "day": 9,
    "hour": "11:45",
    "place_text": "Plaza de Navarra",
    "place_long": "-0.4111729",
    "place_lat": "42.135964",
    "category": "otros",
    "description": "Pantalla instalada para la retransmisión en directo del disparo del cohete anunciador del comienzo de las fiestas. Organiza Aragón Tv.",
    "cancelled": false
  },
  {
    "id": 905,
    "title": "Disparo del cohete anunciador",
    "day": 9,
    "hour": "12:00",
    "place_text": "Balcón principal del Palacio Municipal",
    "place_long": "-0.4108276",
    "place_lat": "42.1407244",
    "category": "otros",
    "description": "Desde el balcón principal del Palacio Municipal, lectura del pregón y disparo del cohete anunciador del comienzo de las fiestas. Cabalgata Pregón de Fiestas. Con salida desde la plaza de la Catedral, recorrerá Coso Alto y Porches de Galicia y finalizará en la plaza de Navarra. Participarán la Banda de Música de Huesca y las Peñas Recreativas Oscenses.",
    "cancelled": false
  },
  {
    "id": 906,
    "title": "Saludo al santo y colocación de la pañoleta",
    "day": 9,
    "hour": "13:30",
    "place_text": "Plaza de San Lorenzo",
    "place_long": "-0.4086181",
    "place_lat": "42.1367475",
    "category": "otros",
    "description": "Saludo al santo y colocación de la pañoleta a cargo de Ángel Espinosa García, de la Peña Recreativa Zoiti. Organizan Peñas Recreativas Oscenses.",
    "cancelled": false
  },
  {
    "id": 907,
    "title": "DJ Colaborador",
    "day": 9,
    "hour": "13:30 - 17:30",
    "place_text": "Plaza de Navarra",
    "place_long": "-0.4111729",
    "place_lat": "42.135964",
    "category": "conciertos",
    "description": "Organizan: Peñas Recreativas 10 de Agosto, La Parrilla y Zoiti.",
    "cancelled": false
  },
  {
    "id": 908,
    "title": "Pasacalles",
    "day": 9,
    "hour": "17:30",
    "place_text": "Plaza de Navarra",
    "place_long": "-0.4111729",
    "place_lat": "42.135964",
    "category": "conciertos",
    "description": "Pasacalles hacia la Plaza de Toros. Charangas Peñas Recreativas Oscenses.",
    "cancelled": false
  },
  {
    "id": 909,
    "title": "Agrupación Folclórica Santa Cecilia",
    "day": 9,
    "hour": "17:30",
    "place_text": "Residencia “Nuestra Señora de la Merced”",
    "place_long": "-0.411363",
    "place_lat": "42.1435253",
    "category": "conciertos",
    "description": "Sin descripción.",
    "cancelled": false
  },
  {
    "id": 910,
    "title": "Gran Parque Infantil de Hinchables",
    "day": 9,
    "hour": "18:00 - 20:00",
    "place_text": "Parque Miguel Servet",
    "place_long": "-0.4147597",
    "place_lat": "42.1369298",
    "category": "infantil",
    "description": "Sin descripción.",
    "cancelled": false
  },
  {
    "id": 911,
    "title": "Titiriteros de Binéfar",
    "day": 9,
    "hour": "18:30",
    "place_text": "Palacio de Congresos",
    "place_long": "-0.4041117",
    "place_lat": "42.131915",
    "category": "infantil",
    "description": "Titiriteros de Binéfar, con el espectáculo infantil “JUGARRINAS”. Organiza Titiriteros de Binéfar. Espacios exterior cubierto.",
    "cancelled": false
  },
  {
    "id": 912,
    "title": "Becerrada",
    "day": 9,
    "hour": "18:30",
    "place_text": "Plaza de Toros",
    "place_long": "-0.4079146",
    "place_lat": "42.14033",
    "category": "toros",
    "description": "Becerrada de las Peñas Recreativas Oscenses. Organizan Albahaca y Plata, S.L. y Peñas Recreativas Oscenses.",
    "cancelled": false
  },
  {
    "id": 913,
    "title": "Paseo infantil en la Narria",
    "day": 9,
    "hour": "18:30 - 19:30",
    "place_text": "Parque Miguel Servet",
    "place_long": "-0.4147597",
    "place_lat": "42.1369298",
    "category": "infantil",
    "description": "Paseos a los niños y niñas en la Narria de La Zaragozana.",
    "cancelled": false
  },
  {
    "id": 914,
    "title": "Gigantes, Cabezudos y Caballicos",
    "day": 9,
    "hour": "19:00",
    "place_text": "Ayuntamiento",
    "place_long": "-0.4110918",
    "place_lat": "42.1405962",
    "category": "infantil",
    "description": "Salida desde el Ayuntamiento de la Comparsa de Gigantes, Cabezudos y Caballicos de Huesca, acompañados por los Gaiters de Tierra Plana.",
    "cancelled": false
  },
  {
    "id": 915,
    "title": "Pasacalles (Agrupación Folclórica el Moral)",
    "day": 9,
    "hour": "19:00",
    "place_text": "Barrio de la Encarnación (Avda. Martínez de Velasco, 69)",
    "place_long": "-0.4280256",
    "place_lat": "42.1274077",
    "category": "conciertos",
    "description": "Pasacalles por el barrio. Pasacalles. Agrupación Folclórica el Moral (Tenerife).",
    "cancelled": false
  },
  {
    "id": 916,
    "title": "Desastrosus Cirkus",
    "day": 9,
    "hour": "19:30",
    "place_text": "Jardines exteriores Centro Cultural del Matadero",
    "place_long": "-0.4136449",
    "place_lat": "42.1349056",
    "category": "otros",
    "description": "Actuación. Desastrosus Cirkus.",
    "cancelled": false
  },
  {
    "id": 917,
    "title": "Orquesta Tarantella",
    "day": 9,
    "hour": "20:30",
    "place_text": "Plaza Luis López Allué",
    "place_long": "-0.4101407",
    "place_lat": "42.138308",
    "category": "conciertos",
    "description": "Sin descripción.",
    "cancelled": false
  },
  {
    "id": 918,
    "title": "Rafa Torres",
    "day": 9,
    "hour": "20:30",
    "place_text": "Plaza San Antonio",
    "place_long": "-0.4096597",
    "place_lat": "42.135202",
    "category": "conciertos",
    "description": "Organizan: Peñas Recreativas Alegría Laurentina, Los 30 y Los Que Faltaban.",
    "cancelled": false
  },
  {
    "id": 919,
    "title": "Salida de Plaza de Toros",
    "day": 9,
    "hour": "20:30",
    "place_text": "Plaza de Toros",
    "place_long": "-0.4079146",
    "place_lat": "42.14033",
    "category": "otros",
    "description": "Salida de la Plaza de Toros de las Peñas Recreativas Oscenses con sus charangas.",
    "cancelled": false
  },
  {
    "id": 920,
    "title": "Solemnes Completas",
    "day": 9,
    "hour": "21:00",
    "place_text": "Iglesia de San Lorenzo",
    "place_long": "-0.4082268",
    "place_lat": "42.1369278",
    "category": "conciertos",
    "description": "Interpretadas por la Coral Oscense, el Coro Ars Musicae, acompañados por la Orquesta de Cámara de Huesca. Dirigirá D. Antonio Viñuales. Organiza Parroquia de San Lorenzo.",
    "cancelled": false
  },
  {
    "id": 921,
    "title": "Ronda jotera de Los Balcones",
    "day": 9,
    "hour": "22:00",
    "place_text": "Calle Zaragoza – Plaza Santo Domingo",
    "place_long": "-0.414559",
    "place_lat": "42.130118",
    "category": "conciertos",
    "description": "Calle Zaragoza – Porches de Galicia – calle Duquesa Villahermosa – plaza Luis López Allué – calle Goya - plaza Santo Domingo. Organiza Grupo Folclórico Roldán del Altoaragón.",
    "cancelled": false
  },
  {
    "id": 922,
    "title": "Agrupación Folclórica el Moral (Tenerife)",
    "day": 9,
    "hour": "22:30",
    "place_text": "Plaza de Santo Domingo",
    "place_long": "-0.407492",
    "place_lat": "42.1389916",
    "category": "conciertos",
    "description": "Sin descripción.",
    "cancelled": false
  },
  {
    "id": 923,
    "title": "Ronda a san Lorenzo",
    "day": 9,
    "hour": "23:00",
    "place_text": "Plaza de San Lorenzo",
    "place_long": "-0.4086181",
    "place_lat": "42.1367475",
    "category": "conciertos",
    "description": "Ronda a san Lorenzo a cargo de Agrupación Folclórica Santa Cecilia y Asociación Folclórica Estirpe de Aragonia.",
    "cancelled": false
  },
  {
    "id": 924,
    "title": "Charanga La Unión",
    "day": 9,
    "hour": "23:30",
    "place_text": "Local Peña Recreativa La Parrilla (Coso Alto)",
    "place_long": "42.1388414",
    "place_lat": "-0.4123497",
    "category": "conciertos",
    "description": "Organiza Peña Recreativa La Parrilla.",
    "cancelled": false
  },
  {
    "id": 925,
    "title": "Funky Monks",
    "day": 9,
    "hour": "24:00",
    "place_text": "Recinto de Peñas Recreativas",
    "place_long": "-0.3997879",
    "place_lat": "42.1308753",
    "category": "conciertos",
    "description": "Tributo a Red Hot Chili Peppers",
    "cancelled": false
  },
  {
    "id": 926,
    "title": "Orquesta Tarantella",
    "day": 9,
    "hour": "24:00",
    "place_text": "Plaza Luis López Allué",
    "place_long": "-0.4101407",
    "place_lat": "42.138308",
    "category": "conciertos",
    "description": "Sin descripción.",
    "cancelled": false
  },
  {
    "id": 927,
    "title": "Orquesta Coral",
    "day": 9,
    "hour": "24:00",
    "place_text": "Peña Os Casaus",
    "place_long": "-0.4135456",
    "place_lat": "42.1347685",
    "category": "conciertos",
    "description": "Organiza Peña Recreativa Os Casaus.",
    "cancelled": false
  },
  {
    "id": 928,
    "title": "Los Gandules",
    "day": 9,
    "hour": "24:00",
    "place_text": "Plaza de Navarra",
    "place_long": "-0.4111729",
    "place_lat": "42.135964",
    "category": "conciertos",
    "description": "Organizan: Peñas Recreativas 10 de Agosto, La Parrilla y Zoiti.",
    "cancelled": false
  },
  {
    "id": 929,
    "title": "Charanga Riau-Riau",
    "day": 9,
    "hour": "24:00",
    "place_text": "Porches de Galicia - Plaza Alfonso I el Batallador",
    "place_long": "-0.410499",
    "place_lat": "42.1366971",
    "category": "conciertos",
    "description": "Porches de Galicia - Calle Padre Huesca – Plaza Alfonso I el Batallador. Pasacalles. Organiza Peña Recreativa Zoiti.",
    "cancelled": false
  },
  {
    "id": 930,
    "title": "Grupo Los 30",
    "day": 9,
    "hour": "24:00",
    "place_text": "Plaza del Justicia",
    "place_long": "-0.4070121",
    "place_lat": "42.1376298",
    "category": "otros",
    "description": "Actuación. Organiza Peña Recreativa Los 30.",
    "cancelled": false
  },
  {
    "id": 931,
    "title": "Ante Todo Mucha Calma",
    "day": 9,
    "hour": "01:30",
    "place_text": "Recinto de Peñas Recreativas",
    "place_long": "-0.3997879",
    "place_lat": "42.1308753",
    "category": "conciertos",
    "description": "Tributo a Siniestro Total",
    "cancelled": false
  },
  {
    "id": 932,
    "title": "Feel The Beat",
    "day": 9,
    "hour": "03:00",
    "place_text": "Recinto de Peñas Recreativas",
    "place_long": "-0.3997879",
    "place_lat": "42.1308753",
    "category": "conciertos",
    "description": "Dj Set",
    "cancelled": false
  }
]
